,City,Cloudiness,Country,Date,Humidity,Lat,Lng,Max Temp,Wind Speed
0,santa maria,0,BR,1563466617,53,-16.02,-48.01,298.15,5.7
1,coihaique,75,CL,1563466618,80,-45.58,-72.07,279.15,3.6
2,tweed,75,CA,1563466618,73,44.48,-77.31,301.48,2.6
3,hilo,75,US,1563466619,73,19.71,-155.08,295.37,2.1
4,usinsk,100,RU,1563466619,92,66.0,57.56,283.102,8.65
5,havoysund,20,NO,1563466620,67,71.0,24.66,289.15,5.1
6,tongliao,0,CN,1563466620,69,43.61,122.27,298.302,4.91
7,eufaula,1,US,1563466621,59,31.89,-85.15,307.59,3.1
8,sayyan,38,YE,1563466622,52,15.17,44.32,298.602,3.84
9,bredasdorp,86,ZA,1563466622,43,-34.53,20.04,294.15,9.8
10,rikitea,1,PF,1563466623,72,-23.12,-134.97,293.802,13.75
11,ponta do sol,77,BR,1563466623,54,-20.63,-46.0,292.402,3.43
12,tasiilaq,40,GL,1563466624,81,65.61,-37.64,284.15,4.6
13,lebu,75,ET,1563466625,82,8.96,38.73,289.15,2.1
14,naron,40,ES,1563466626,78,43.52,-8.15,296.48,4.6
15,gillette,1,US,1563466554,73,44.29,-105.5,298.71,1.5
16,elizabeth city,1,US,1563466626,70,36.3,-76.22,306.48,6.2
17,labytnangi,100,RU,1563466627,87,66.66,66.39,292.602,1.77
18,bintulu,75,MY,1563466555,100,3.17,113.03,299.15,0.36
19,husavik,100,CA,1563466628,62,50.56,-96.99,297.59,1.34
20,punta arenas,0,CL,1563466628,86,-53.16,-70.91,274.82,6.2
21,jalu,0,LY,1563466628,22,29.03,21.55,308.402,5.55
22,cidreira,0,BR,1563466629,63,-30.17,-50.22,292.602,7.61
23,carnarvon,5,ZA,1563466630,28,-30.97,22.13,290.002,7.92
24,atuona,8,PF,1563466630,77,-9.8,-139.03,299.602,3.36
25,mar del plata,0,AR,1563466631,52,-46.43,-67.52,279.402,7.61
26,busselton,95,AU,1563466632,80,-33.64,115.35,285.93,5.14
27,severo-yeniseyskiy,72,RU,1563466505,85,60.37,93.04,291.502,0.86
28,treinta y tres,30,UY,1563466633,74,-33.23,-54.39,288.902,4.02
29,jamestown,0,AU,1563466633,77,-33.21,138.6,279.902,1.9
30,general cepeda,75,MX,1563466634,42,25.38,-101.48,300.15,3.1
31,buraydah,0,SA,1563466634,16,26.33,43.97,313.15,6.2
32,talnakh,0,RU,1563466635,56,69.49,88.39,294.15,4.0
33,cayenne,0,GF,1563466635,70,4.94,-52.33,303.15,1.0
34,xuddur,100,SO,1563466636,47,4.12,43.89,300.602,7.67
35,opuwo,0,NA,1563466636,11,-18.06,13.84,302.102,5.21
36,west fargo,1,US,1563466527,69,46.88,-96.9,297.59,3.1
37,bitung,20,ID,1563466637,83,1.44,125.19,297.15,0.5
38,port alfred,30,ZA,1563466637,68,-33.59,26.89,289.26,1.78
39,kruisfontein,66,ZA,1563466638,47,-34.0,24.73,291.602,2.21
40,nome,75,US,1563466638,62,30.04,-94.42,305.93,5.1
41,bambous virieux,75,MU,1563466639,69,-20.34,57.76,296.15,8.2
42,meadow lake,90,CA,1563466639,93,54.13,-108.44,288.15,1.5
43,west bay,20,CA,1563466640,72,49.34,-123.21,290.93,8.7
44,nemuro,100,JP,1563466640,95,43.32,145.57,288.102,6.28
45,lompoc,90,US,1563466641,87,34.64,-120.46,290.93,1.93
46,luocheng,98,CN,1563466641,91,28.29,114.55,297.902,1.26
47,kloulklubed,75,PW,1563466642,83,7.04,134.26,300.15,1.5
48,tsabong,0,BW,1563466642,10,-26.02,22.4,297.002,3.24
49,new norfolk,75,AU,1563466642,61,-42.78,147.06,283.15,9.3
50,lima,90,PE,1563466197,87,-12.06,-77.04,289.15,2.6
51,ancud,75,CL,1563466643,93,-41.87,-73.83,282.15,6.7
52,dunedin,100,NZ,1563466502,80,-45.87,170.5,282.59,3.58
53,kristianstad,51,SE,1563466644,53,56.03,14.16,297.15,3.1
54,burns lake,98,CA,1563466645,75,54.23,-125.76,281.102,3.46
55,san patricio,60,PY,1563466645,61,-26.98,-56.83,291.702,4.85
56,tuckahoe,20,US,1563466646,52,37.59,-77.56,307.59,4.1
57,nanortalik,96,GL,1563466646,90,60.14,-45.24,279.002,2.33
58,fare,54,PF,1563466647,62,-16.7,-151.02,297.202,5.62
59,kaitangata,100,NZ,1563466648,69,-46.28,169.85,280.37,1.34
60,hobart,75,AU,1563466371,61,-42.88,147.33,283.15,9.3
61,kamarion,0,GR,1563466648,54,36.8,25.82,300.15,8.2
62,nikolskoye,90,RU,1563466649,87,59.7,30.79,289.82,6.0
63,okhotsk,100,RU,1563466649,95,59.36,143.24,286.102,1.84
64,genhe,0,CN,1563466650,69,50.78,121.52,288.902,0.58
65,pimentel,2,BR,1563466650,55,-3.7,-45.5,304.002,2.02
66,albany,90,US,1563466500,69,42.65,-73.75,299.26,2.57
67,ginda,75,IN,1563466651,83,30.69,78.49,301.15,2.1
68,bluff,0,AU,1563466398,53,-23.58,149.07,284.202,3.44
69,ribeira grande,75,PT,1563466652,88,38.52,-28.7,296.15,5.7
70,port lincoln,0,AU,1563466522,79,-34.72,135.86,288.302,4.84
71,castro,75,CL,1563466653,93,-42.48,-73.76,282.15,6.7
72,ushuaia,0,AR,1563466407,74,-54.81,-68.31,276.15,2.6
73,pevek,100,RU,1563466653,97,69.7,170.27,273.102,4.19
74,vaini,100,IN,1563466654,86,15.34,74.49,299.302,1.72
75,ilulissat,75,GL,1563466654,62,69.22,-51.1,286.15,6.7
76,arraial do cabo,40,BR,1563466655,53,-22.97,-42.02,296.15,6.7
77,qaanaaq,100,GL,1563466655,59,77.48,-69.36,280.002,3.63
78,alagoinhas,67,BR,1563466656,84,-12.13,-38.42,295.502,5.36
79,cherskiy,100,RU,1563466656,90,68.75,161.3,273.302,6.52
80,cabo san lucas,5,MX,1563466593,48,22.89,-109.91,305.93,3.67
81,kapaa,40,US,1563466657,69,22.08,-159.32,300.15,8.2
82,mount gambier,75,AU,1563466657,93,-37.83,140.78,280.15,3.6
83,hermanus,0,ZA,1563466658,59,-34.42,19.24,292.04,7.15
84,fortuna,90,US,1563466658,100,40.6,-124.16,292.04,6.2
85,mersing,100,MY,1563466659,94,2.43,103.84,297.402,0.69
86,chokurdakh,36,RU,1563466659,92,70.62,147.9,274.002,2.07
87,tuktoyaktuk,90,CA,1563466660,93,69.44,-133.03,281.15,3.6
88,mataura,100,NZ,1563466660,90,-46.19,168.86,279.602,1.39
89,vanimo,0,PG,1563466661,69,-2.67,141.3,301.502,1.71
90,yellowknife,20,CA,1563466661,55,62.45,-114.38,292.04,6.7
91,durban,100,CA,1563466662,92,51.93,-101.44,289.402,1.36
92,jiancheng,40,CN,1563466662,70,30.39,104.55,302.59,2.0
93,payo,63,ID,1563466663,93,-3.75,103.64,291.502,1.66
94,nan,85,TH,1563466663,94,18.78,100.78,296.902,0.79
95,kahului,20,US,1563466664,69,20.89,-156.47,299.15,5.7
96,hithadhoo,100,MV,1563466664,70,-0.6,73.08,301.602,5.98
97,barrow,100,AR,1563466665,42,-38.31,-60.23,284.902,3.29
98,mehamn,0,NO,1563466666,71,71.03,27.85,285.15,1.5
99,necochea,100,AR,1563466667,70,-38.55,-58.74,285.93,2.68
100,george,40,MW,1563466667,46,-15.35,34.83,296.15,3.1
101,saskylakh,91,RU,1563466668,63,71.97,114.09,281.702,2.82
102,cruzeiro do sul,20,BR,1563466669,78,-7.63,-72.67,301.15,2.1
103,vardo,90,US,1563466669,66,39.62,-77.74,303.15,4.1
104,yoichi,3,JP,1563466669,88,43.19,140.77,292.04,1.34
105,uvat,60,RU,1563466670,65,59.14,68.9,294.402,1.61
106,upernavik,71,GL,1563466671,78,72.79,-56.15,280.402,5.07
107,mahebourg,75,MU,1563466672,73,-20.41,57.7,296.15,7.7
108,puerto ayora,40,EC,1563466638,88,-0.74,-90.35,295.15,5.1
109,tekeli,0,KZ,1563466672,17,44.86,78.76,302.202,6.13
110,bongandanga,43,CD,1563466673,67,1.51,21.07,301.702,2.17
111,rocha,0,UY,1563466674,72,-34.48,-54.34,288.102,4.65
112,chiang klang,91,TH,1563466674,91,19.29,100.86,296.602,1.11
113,ahipara,98,NZ,1563466675,84,-35.17,173.16,287.902,9.73
114,praia da vitoria,40,PT,1563466676,73,38.73,-27.07,298.71,5.71
115,nesterov,6,RU,1563466676,82,54.63,22.57,292.202,4.95
116,brae,20,GB,1563466677,72,60.4,-1.35,290.15,4.1
117,caravelas,97,BR,1563466677,66,-17.73,-39.27,295.602,6.93
118,taltal,0,CL,1563466678,56,-25.41,-70.49,289.002,1.86
119,thompson,90,CA,1563466520,68,55.74,-97.86,291.15,1.0
120,bonnyville,90,CA,1563466679,93,54.27,-110.74,287.15,3.1
121,le port,40,FR,1563466679,50,42.87,1.37,300.93,5.7
122,pisco,0,PE,1563466679,30,-13.71,-76.2,295.15,2.6
123,hasaki,75,JP,1563466680,100,35.73,140.83,297.15,3.1
124,suez,0,EG,1563466680,44,29.97,32.54,305.802,12.28
125,verkhnevilyuysk,0,RU,1563466681,58,63.45,120.31,283.102,3.45
126,yarada,75,IN,1563466682,79,17.65,83.27,302.15,4.1
127,port macquarie,0,AU,1563466682,74,-31.43,152.91,277.59,0.5
128,smithers,90,CA,1563466683,93,54.78,-127.17,284.15,1.0
129,morgantown,40,US,1563466497,69,39.63,-79.96,302.59,2.6
130,port elizabeth,75,US,1563466684,70,39.31,-74.98,306.48,2.6
131,lokomotivnyy,91,RU,1563466684,43,53.01,60.57,300.502,1.49
132,healesville,75,AU,1563466685,76,-37.65,145.52,285.37,6.2
133,hudiksvall,91,SE,1563466685,63,61.73,17.1,290.302,3.79
134,taikang,36,CN,1563466686,74,46.86,124.44,296.202,3.7
135,portland,1,US,1563466399,56,43.66,-70.25,298.15,2.1
136,champerico,75,MX,1563466687,69,16.38,-93.6,300.15,2.6
137,vila franca do campo,20,PT,1563466687,73,37.72,-25.43,296.15,7.2
138,lagoa,0,PT,1563466687,64,37.14,-8.45,300.37,4.1
139,puerto colombia,0,CO,1563466688,66,10.99,-74.96,304.15,5.1
140,bud,20,NO,1563466688,60,62.91,6.91,295.15,1.5
141,helong,0,CN,1563466689,86,25.94,116.13,299.502,1.19
142,taloqan,0,AF,1563466689,15,36.74,69.54,303.602,1.37
143,kodiak,1,US,1563466690,27,39.95,-94.76,305.37,6.2
144,saint george,20,GR,1563466502,37,39.45,22.34,303.71,5.1
145,salta,0,AR,1563466669,55,-24.79,-65.41,293.15,1.0
146,sandakan,75,MY,1563466691,78,5.84,118.12,301.15,1.0
147,tigil,100,RU,1563466692,82,57.8,158.67,286.902,3.6
148,alghero,0,IT,1563466692,69,40.56,8.32,300.15,4.1
149,kiama,0,AU,1563466693,61,-34.67,150.86,282.15,8.7
150,chiredzi,0,ZW,1563466693,16,-21.05,31.67,297.902,2.46
151,alice springs,0,AU,1563466694,52,-23.7,133.88,280.15,2.1
152,vostok,100,RU,1563466694,97,46.45,135.83,291.302,2.48
153,nakamura,75,JP,1563466695,88,35.17,136.87,298.71,2.1
154,mayo,40,CA,1563466695,63,63.59,-135.9,289.15,2.1
155,fushun,0,CN,1563466696,88,41.89,123.95,297.15,2.0
156,marawi,45,PH,1563466696,89,8.0,124.29,297.59,2.68
157,goderich,47,CA,1563466697,91,43.74,-81.71,301.48,0.89
158,faya,40,SA,1563466697,49,18.39,42.45,301.15,3.6
159,aswan,20,EG,1563466698,6,24.09,32.9,319.15,3.6
160,nioro,5,GM,1563466698,39,13.79,-15.05,308.202,5.28
161,iskateley,70,RU,1563466699,57,67.68,53.15,285.002,7.01
162,butaritari,67,KI,1563466508,73,3.07,172.79,301.302,2.66
163,port hawkesbury,1,CA,1563466700,56,45.62,-61.36,294.82,4.6
164,codrington,0,AU,1563466700,93,-28.95,153.24,286.48,2.1
165,rampura,90,IN,1563466701,55,24.47,75.44,303.802,3.99
166,freistadt,20,AT,1563466701,34,48.51,14.5,300.93,4.6
167,launceston,75,AU,1563466702,87,-41.43,147.14,281.48,4.6
168,cape town,75,ZA,1563466431,82,-33.93,18.42,290.93,9.3
169,dingle,100,PH,1563466703,86,11.0,122.67,296.902,2.28
170,suraabad,0,AZ,1563466703,61,40.82,49.47,301.15,3.6
171,udala,20,ES,1563466704,50,43.08,-2.51,297.59,5.1
172,berlevag,0,NO,1563466705,76,70.86,29.09,288.15,9.3
173,hobyo,9,SO,1563466705,60,5.35,48.53,299.402,13.36
174,bhadrachalam,99,IN,1563466705,76,17.67,80.89,301.602,1.09
175,chuy,4,UY,1563466706,78,-33.69,-53.46,288.102,3.72
176,el rodeo,40,VE,1563466706,48,7.91,-72.33,304.15,11.3
177,baykit,0,RU,1563466707,65,61.68,96.39,289.402,3.55
178,sungaipenuh,95,ID,1563466707,97,-2.08,101.38,295.702,0.5
179,batsfjord,0,NO,1563466708,58,70.63,29.72,288.15,4.6
180,cap malheureux,75,MU,1563466708,73,-19.98,57.61,296.15,7.7
181,erenhot,91,CN,1563466709,36,43.65,111.97,302.202,4.42
182,rawson,0,AR,1563466709,40,-43.3,-65.11,282.502,12.7
183,westport,90,US,1563466627,88,41.14,-73.36,299.26,3.6
184,corn island,17,NI,1563466710,78,12.17,-83.04,300.602,9.21
185,port hueneme,90,US,1563466711,82,34.15,-119.2,297.04,2.6
186,dzaoudzi,0,YT,1563466711,73,-12.79,45.27,297.15,4.1
187,college,90,US,1563466712,87,64.86,-147.8,290.15,1.5
188,santa marta,20,CO,1563466608,70,11.24,-74.21,304.15,2.6
189,meulaboh,100,ID,1563466712,93,4.14,96.13,298.502,4.66
190,saldanha,0,PT,1563466713,23,41.42,-6.55,304.602,3.27
191,pisz,0,PL,1563466713,49,53.63,21.81,295.15,3.1
192,myitkyina,1,MM,1563466714,87,25.38,97.4,298.502,0.81
193,bela,0,PK,1563466715,58,26.23,66.31,302.602,1.98
194,lapeer,40,US,1563466715,51,43.05,-83.32,304.26,6.2
195,muros,20,ES,1563466716,64,42.77,-9.06,300.37,3.6
196,tres passos,0,BR,1563466716,70,-27.46,-53.93,288.902,4.38
197,airai,1,TL,1563466716,82,-8.93,125.41,293.502,2.16
198,longyearbyen,75,NO,1563466717,70,78.22,15.63,280.15,8.7
199,katobu,96,ID,1563466717,87,-4.94,122.53,297.302,2.44
200,horki,100,BY,1563466718,95,54.29,30.98,286.202,5.66
201,gornopravdinsk,74,RU,1563466718,64,60.06,69.92,294.402,1.14
202,provideniya,100,RU,1563466718,90,64.42,-173.23,284.102,2.06
203,saint-augustin,20,CA,1563466719,53,45.63,-73.98,298.71,3.1
204,adrar,68,DZ,1563466719,5,27.87,-0.29,322.15,7.7
205,coquimbo,0,CL,1563466720,67,-29.95,-71.34,287.15,1.5
206,narsaq,20,GL,1563466720,55,60.91,-46.05,290.15,3.1
207,varena,0,LT,1563466721,43,54.21,24.57,295.15,6.2
208,klaksvik,99,FO,1563466721,93,62.23,-6.59,286.15,4.1
209,harper,75,US,1563466722,62,30.3,-99.24,303.15,6.2
210,bandarbeyla,34,SO,1563466722,31,9.49,50.81,306.202,9.55
211,faanui,0,PF,1563466723,67,-16.48,-151.75,297.402,5.73
212,sao joao da barra,75,BR,1563466723,72,-21.64,-41.05,295.15,3.6
213,tura,0,RU,1563466724,54,64.27,100.22,286.702,3.92
214,tautira,20,PF,1563466724,68,-17.73,-149.15,293.15,3.1
215,srednekolymsk,95,RU,1563466725,64,67.46,153.71,278.402,6.5
216,karpogory,0,RU,1563466725,35,64.0,44.44,294.902,4.17
217,carolina,20,PR,1563466644,59,18.38,-65.96,305.15,8.7
218,veraval,75,FR,1563466726,93,49.65,0.71,293.71,1.5
219,lasa,40,CY,1563466726,65,34.92,32.53,301.15,5.7
220,east london,0,ZA,1563466572,48,-33.02,27.91,291.15,1.0
221,laguna,75,BZ,1563466727,74,16.17,-88.94,303.15,4.1
222,zihuatanejo,40,MX,1563466728,55,17.64,-101.55,305.15,1.5
223,port keats,73,AU,1563466728,47,-14.25,129.55,294.302,3.31
224,esperance,90,AU,1563466728,93,-33.86,121.89,286.15,6.2
225,catalina,0,PE,1563466730,30,-13.57,-76.13,295.15,2.6
226,takapau,79,NZ,1563466730,87,-40.02,176.35,278.15,1.97
227,katsuura,90,JP,1563466731,100,33.93,134.5,295.15,2.6
228,dauphin,40,CA,1563466731,82,51.15,-100.04,293.15,4.6
229,tamuin,3,MX,1563466732,75,21.98,-98.75,300.402,0.47
230,sabla,85,NG,1563466732,31,12.75,4.71,309.902,4.83
231,nisia floresta,75,BR,1563466733,58,-6.09,-35.21,301.15,7.7
232,dawlatabad,0,AF,1563466733,8,36.41,64.91,308.202,3.71
233,ixtapa,90,MX,1563466734,78,20.71,-105.21,303.15,2.95
234,elko,1,US,1563466734,33,40.83,-115.76,300.93,2.1
235,avarua,7,CK,1563466719,83,-21.21,-159.78,296.15,4.6
236,matay,0,EG,1563466735,13,28.42,30.79,313.802,6.8
237,ginir,16,ET,1563466735,75,7.14,40.71,290.402,3.09
238,namibe,0,AO,1563466736,66,-15.19,12.15,295.702,2.99
239,kati,40,ML,1563466736,55,12.75,-8.07,305.15,2.6
240,mbuji-mayi,0,CD,1563466737,24,-6.13,23.6,305.15,2.1
241,fereydun kenar,75,IR,1563466506,78,36.69,52.52,301.15,2.1
242,bonfim,98,GY,1563466738,72,3.36,-59.84,300.802,4.2
243,zeya,0,RU,1563466738,53,53.74,127.27,289.802,0.94
244,waipawa,35,NZ,1563466739,87,-39.94,176.59,278.15,1.35
245,guerrero negro,0,MX,1563466739,87,27.97,-114.04,292.102,3.13
246,oktyabrskiy,40,RU,1563466740,60,55.61,37.97,295.93,2.0
247,mahibadhoo,100,MV,1563466472,72,3.78,72.97,301.702,10.67
248,pailon,40,BO,1563466741,61,-17.66,-62.72,300.15,7.7
249,mahon,75,IE,1563466741,72,51.89,-8.4,291.48,5.7
250,high level,40,CA,1563466742,68,58.52,-117.13,293.15,3.1
251,haines junction,100,CA,1563466742,84,60.75,-137.51,284.002,2.55
252,matagami,100,NG,1563466743,84,9.67,8.4,297.802,2.08
253,leningradskiy,100,RU,1563466743,93,69.38,178.42,274.402,5.22
254,ternate,75,PH,1563466744,83,14.29,120.72,302.59,2.1
255,saint-philippe,1,CA,1563466744,54,45.36,-73.48,299.15,3.73
256,nadadores,75,MX,1563466745,54,27.03,-101.59,305.37,1.82
257,pyapon,0,MM,1563466745,85,16.29,95.68,300.802,2.78
258,mednogorskiy,84,RU,1563466746,96,43.92,41.19,291.102,2.27
259,clyde river,20,CA,1563466746,93,70.47,-68.59,278.15,4.6
260,masvingo,0,ZW,1563466747,16,-20.08,30.83,295.802,2.95
261,carahue,0,CL,1563466747,81,-38.71,-73.16,282.15,1.5
262,ponta delgada,20,PT,1563466748,73,37.73,-25.67,296.15,7.2
263,tamasopo,1,MX,1563466748,72,21.92,-99.39,296.102,1.13
264,severo-kurilsk,21,RU,1563466749,93,50.68,156.12,280.202,1.16
265,pervomayskiy,0,RU,1563466749,71,53.24,40.29,294.002,4.38
266,collie,12,AU,1563466750,80,-33.36,116.15,285.93,1.01
267,mulege,10,MX,1563466750,50,26.88,-111.98,303.602,0.71
268,lerwick,20,GB,1563466751,87,60.15,-1.15,290.15,2.1
269,morgan city,70,US,1563466454,74,29.7,-91.21,305.93,1.9
270,cassino,40,IT,1563466752,69,41.49,13.83,302.15,5.1
271,port hedland,0,AU,1563466752,54,-20.31,118.58,288.15,3.1
272,nevers,0,FR,1563466571,39,46.99,3.16,300.15,5.1
273,kavieng,16,PG,1563466753,73,-2.57,150.8,301.602,3.15
274,misratah,67,LY,1563466753,63,32.38,15.09,299.102,6.94
275,kasongo-lunda,0,CD,1563466754,14,-6.48,16.82,306.902,2.2
276,oktyabrskoye,20,RU,1563466754,88,56.73,85.44,293.15,2.0
277,angoche,54,MZ,1563466755,71,-16.23,39.91,295.402,1.85
278,namatanai,100,PG,1563466756,82,-3.66,152.44,299.402,6.96
279,bilma,31,NE,1563466757,9,18.69,12.92,315.402,2.93
280,lumphat,86,KH,1563466757,96,13.5,106.97,297.302,2.17
281,labuan,75,BN,1563466758,88,5.28,115.24,301.15,2.7
282,araouane,93,ML,1563466758,14,18.9,-3.53,315.702,2.95
283,gigmoto,100,PH,1563466759,75,13.78,124.39,302.402,7.77
284,dikson,4,RU,1563466759,58,73.51,80.55,284.002,4.89
285,georgetown,75,GY,1563466760,74,6.8,-58.16,303.15,2.1
286,mabaruma,4,GY,1563466761,54,8.2,-59.78,305.102,2.05
287,axim,68,GH,1563466761,81,4.87,-2.24,299.002,5.82
288,port hardy,40,CA,1563466762,82,50.7,-127.42,287.15,3.1
289,hokitika,100,NZ,1563466762,86,-42.72,170.96,283.002,5.18
290,phangnga,75,TH,1563466446,88,8.45,98.53,298.15,1.0
291,tiksi,100,RU,1563466763,90,71.64,128.87,276.002,4.33
292,huarmey,97,PE,1563466764,86,-10.07,-78.15,289.602,7.22
293,oshakati,0,NA,1563466764,12,-17.78,15.7,303.15,4.6
294,avera,1,US,1563466765,62,33.19,-82.53,308.15,2.1
295,susa,13,CO,1563466765,46,5.45,-73.81,296.702,0.9
296,murfreesboro,75,US,1563466766,78,35.85,-86.39,302.59,4.71
297,mandera,0,ET,1563466766,38,3.94,41.86,302.602,8.3
298,merritt,75,CA,1563466640,59,50.11,-120.79,289.15,6.2
299,khatanga,14,RU,1563466767,55,71.98,102.47,286.502,5.09
300,victoria,75,BN,1563466758,88,5.28,115.24,301.15,2.7
301,tabuk,100,PH,1563466699,98,17.41,121.44,291.102,1.51
302,torbay,75,CA,1563466768,82,47.66,-52.73,293.15,6.7
303,prince albert,90,CA,1563466769,93,53.2,-105.75,289.15,2.6
304,poum,20,MK,1563466770,33,41.28,20.71,298.15,1.5
305,sur,0,OM,1563466770,57,22.57,59.53,304.202,2.69
306,naze,100,NG,1563466771,80,5.43,7.07,300.202,3.95
307,gerardmer,0,FR,1563466772,34,48.07,6.88,302.59,2.1
308,honiara,100,SB,1563466772,80,-9.43,159.96,300.202,3.33
309,nampula,75,MZ,1563466773,68,-15.12,39.26,294.15,2.1
310,praya,40,ID,1563466773,83,-8.71,116.27,298.15,3.1
311,flinders,0,AU,1563466774,61,-34.58,150.85,282.15,8.7
312,minsk,75,BY,1563466774,72,53.9,27.56,292.15,3.0
313,mujiayingzi,33,CN,1563466775,53,42.12,118.78,294.102,2.55
314,luena,0,AO,1563466775,29,-11.78,19.91,298.15,3.1
315,ambilobe,0,MG,1563466776,54,-13.19,49.05,298.202,4.36
316,tamiahua,92,MX,1563466776,75,21.28,-97.45,301.702,2.28
317,gumdag,0,TM,1563466776,31,39.2,54.59,308.302,2.95
318,englehart,90,CA,1563466777,53,47.82,-79.87,296.15,5.7
319,pangnirtung,40,CA,1563466777,81,66.15,-65.72,284.15,4.1
320,sistranda,20,NO,1563466778,50,63.73,8.83,297.15,4.1
321,krasnyy chikoy,100,RU,1563466779,92,50.36,108.75,289.002,1.02
322,ulaangom,1,MN,1563466779,56,49.98,92.07,292.302,1.49
323,villanueva de la serena,0,ES,1563466780,29,38.97,-5.8,307.59,1.34
324,mount pleasant,40,US,1563466781,62,33.16,-94.97,305.37,5.7
325,krasnogorskiy,60,RU,1563466782,95,55.39,83.61,290.402,2.99
326,mason city,1,US,1563466587,70,43.15,-93.2,304.26,6.7
327,sao jose da coroa grande,0,BR,1563466783,60,-8.9,-35.15,299.902,4.42
328,kirkuk,0,IQ,1563466783,10,35.47,44.4,312.302,8.69
329,knysna,0,ZA,1563466783,82,-34.04,23.05,288.15,2.6
330,la encarnacion,83,HN,1563466784,1,14.67,-89.08,300.37,3.01
331,pangai,53,TO,1563466785,82,-19.8,-174.35,297.202,7.19
332,hervey bay,0,AU,1563466785,67,-25.3,152.85,284.26,2.1
333,bereda,40,ES,1563466786,78,43.27,-7.54,301.48,4.6
334,abu dhabi,0,AE,1563466786,63,24.47,54.37,307.15,4.1
335,paso de carrasco,0,UY,1563466787,67,-34.86,-56.05,288.15,3.6
336,komsomolskiy,100,RU,1563466787,95,67.55,63.78,289.502,6.85
337,bam,4,IR,1563466788,11,29.11,58.36,297.902,0.88
338,kuzhithurai,75,IN,1563466788,88,8.32,77.18,298.15,3.1
339,goma,75,CD,1563466789,47,-1.67,29.23,298.15,3.1
340,northam,0,AU,1563466789,93,-31.65,116.67,284.15,0.5
341,norman wells,20,CA,1563466790,63,65.28,-126.83,290.15,5.1
342,luderitz,0,NA,1563466790,55,-26.65,15.16,292.15,7.2
343,san ramon,20,NI,1563466791,57,12.92,-85.84,297.15,6.2
344,beringovskiy,89,RU,1563466791,87,63.05,179.32,286.802,0.14
345,paris,0,FR,1563466791,53,48.86,2.35,300.15,7.7
346,imbituba,40,BR,1563466679,88,-28.24,-48.67,292.15,3.6
347,grindavik,40,IS,1563466792,67,63.84,-22.43,292.15,7.2
348,san quintin,100,PH,1563466793,89,17.54,120.52,297.502,4.4
349,banjar,95,ID,1563466793,91,-7.37,108.54,295.002,0.75
350,nueve de julio,96,AR,1563466794,31,-31.67,-68.39,285.302,7.93
351,khani,90,GE,1563466794,94,41.96,42.96,295.15,1.0
352,pala,100,TD,1563466795,76,9.37,14.91,301.502,2.11
353,aksehir,26,TR,1563466795,61,38.36,31.42,292.202,3.02
354,tatarka,98,BY,1563466796,84,53.25,28.82,291.102,4.63
355,parkes,0,AU,1563466580,84,-33.14,148.18,276.48,0.56
356,goundam,36,ML,1563466796,19,16.42,-3.66,313.202,2.86
357,souillac,0,FR,1563466797,44,45.6,-0.6,299.26,4.6
358,ibanda,20,TZ,1563466797,47,-2.8,32.47,300.15,5.1
359,vila velha,20,BR,1563466798,52,-3.71,-38.6,304.15,6.2
360,puerto escondido,40,MX,1563466798,74,15.86,-97.07,301.15,1.5
361,muborak,0,UZ,1563466799,7,39.25,65.15,311.302,4.95
362,dharchula,17,IN,1563466799,88,29.85,80.53,285.802,1.12
363,esil,0,KZ,1563466800,47,51.96,66.41,298.602,2.87
364,bethel,90,US,1563466800,87,60.79,-161.76,286.15,4.6
365,ust-maya,59,RU,1563466801,93,60.42,134.54,281.802,2.46
366,guajara,75,BR,1563466801,74,-0.88,-48.16,302.15,3.6
367,padang,100,ID,1563466802,83,-0.92,100.36,301.002,7.37
368,ler,75,NO,1563466802,26,63.2,10.3,301.15,5.1
369,bondoukou,82,CI,1563466803,74,8.04,-2.8,300.602,2.83
370,topolobampo,75,MX,1563466803,55,25.6,-109.05,307.04,2.37
371,saint-pierre,0,FR,1563466803,34,48.95,4.24,301.48,6.2
372,nantucket,90,US,1563466804,100,41.28,-70.1,298.15,1.5
373,zhigansk,0,RU,1563466805,62,66.77,123.37,281.402,9.73
374,riohacha,75,CO,1563466805,55,11.54,-72.91,306.15,7.2
375,kaspiyskiy,0,RU,1563466806,28,45.39,47.37,306.102,3.84
376,mnogovershinnyy,53,RU,1563466806,97,53.94,139.92,286.902,1.03
377,perivolion,20,GR,1563466807,28,39.42,20.01,302.15,4.1
378,kamyshlov,0,RU,1563466807,72,56.85,62.71,295.402,1.68
379,redlands,5,US,1563466808,56,34.06,-117.19,299.82,1.82
380,sao filipe,16,CV,1563466809,76,14.9,-24.5,297.002,2.69
381,yumen,50,CN,1563466810,26,40.29,97.04,298.702,3.35
382,kungurtug,11,RU,1563466810,62,50.6,97.53,286.202,1.32
383,lugovoy,33,RU,1563466810,65,59.72,65.88,293.602,0.45
384,aljezur,0,PT,1563466811,78,37.31,-8.8,300.37,1.79
385,ugoofaaru,100,MV,1563466811,71,5.67,73.0,301.502,11.43
386,orlik,0,PL,1563466812,72,53.95,17.74,296.48,4.1
387,barra do garcas,0,BR,1563466812,35,-15.89,-52.26,305.15,5.1
388,karaton,20,ID,1563466813,69,-6.34,106.1,299.82,2.1
389,numaligarh,0,IN,1563466813,84,26.63,93.73,299.402,1.14
390,ketchikan,90,US,1563466804,100,55.34,-131.65,287.15,4.6
391,ostrovnoy,5,RU,1563466814,63,68.05,39.51,286.102,5.06
392,brus laguna,25,HN,1563466814,75,15.75,-84.48,301.102,7.11
393,guane,51,CU,1563466815,69,22.2,-84.09,301.502,1.53
394,matara,20,BI,1563466815,54,-3.48,29.48,301.15,10.3
395,tuy hoa,100,VN,1563466816,78,13.08,109.3,298.902,1.67
396,inta,100,RU,1563466816,94,66.04,60.13,285.802,8.06
397,wloszczowa,81,PL,1563466817,31,50.85,19.97,298.15,1.34
398,levelland,1,US,1563466810,45,33.59,-102.38,304.26,8.7
399,san cristobal,6,HN,1563466818,63,14.68,-86.92,296.502,4.34
400,makaleng,0,BW,1563466818,20,-20.8,27.27,293.15,2.1
401,houma,38,CN,1563466819,72,35.63,111.36,295.602,0.77
402,bosobolo,100,CD,1563466819,84,4.19,19.88,298.402,1.92
403,at-bashi,53,KG,1563466820,44,41.17,75.81,289.902,2.37
404,sinnamary,100,GF,1563466820,73,5.38,-52.96,301.202,3.05
405,kimbe,70,PG,1563466821,84,-5.56,150.15,298.102,2.76
406,kadhan,0,PK,1563466821,64,24.48,68.99,302.802,7.34
407,saint anthony,1,US,1563466821,40,43.97,-111.68,295.37,7.2
408,buchanan,75,LR,1563466822,74,5.88,-10.05,302.15,4.1
409,namie,100,JP,1563466823,63,37.52,140.86,295.93,0.98
410,quatre cocos,75,MU,1563466823,73,-20.21,57.76,296.15,7.7
411,yeniseysk,16,RU,1563466824,74,58.45,92.17,292.902,1.69
412,egvekinot,88,RU,1563466824,95,66.32,-179.17,281.202,0.94
413,katsina,48,NG,1563466825,38,12.99,7.6,308.002,7.83
414,methoni,40,GR,1563466825,37,36.82,21.7,302.59,3.84
415,aklavik,75,CA,1563466826,93,68.22,-135.01,286.15,3.1
416,sorland,0,NO,1563466826,63,67.67,12.69,289.15,5.1
417,lorengau,10,PG,1563466826,85,-2.02,147.27,299.702,3.59
418,pochutla,75,MX,1563466827,59,15.74,-96.47,305.93,0.28
419,labuhan,38,ID,1563466828,96,-2.54,115.51,295.702,1.19
420,gari,79,RU,1563466828,70,59.43,62.35,293.002,2.21
421,ossora,86,RU,1563466829,97,59.24,163.07,283.702,0.31
422,lodja,0,CD,1563466829,18,-3.52,23.6,308.802,1.85
423,dagana,11,MR,1563466830,32,16.52,-15.51,310.15,4.1
424,colares,0,PT,1563466830,56,38.8,-9.45,302.15,7.7
425,kavaratti,100,IN,1563466831,83,10.57,72.64,299.702,14.27
426,lavrentiya,79,RU,1563466832,85,65.58,-170.99,283.302,2.13
427,jumla,6,NP,1563466832,94,29.28,82.18,285.402,0.75
428,saint-joseph,0,FR,1563466833,69,43.56,6.97,302.59,3.1
429,cadillac,75,US,1563466650,78,44.25,-85.4,298.71,2.6
430,waingapu,2,ID,1563466834,94,-9.65,120.26,294.102,4.26
431,hobe sound,75,US,1563466834,83,27.06,-80.14,305.37,1.64
432,aldan,65,RU,1563466835,87,58.61,125.39,283.702,1.74
433,cartagena,0,ES,1563466814,61,37.63,-1.0,307.15,4.1
434,road town,20,VG,1563466588,62,18.42,-64.62,304.15,5.7
435,kieta,69,PG,1563466836,79,-6.22,155.63,299.702,2.85
436,kjollefjord,0,NO,1563466836,71,70.95,27.35,285.15,1.5
437,pushkinskiye gory,100,RU,1563466837,88,57.02,28.91,290.802,6.0
438,chara,20,GR,1563466838,37,39.42,22.43,303.71,5.1
439,la libertad,0,PE,1563466838,16,-16.38,-71.56,293.15,3.1
440,guarapari,75,BR,1563466838,73,-20.67,-40.5,294.15,3.6
441,la ronge,20,CA,1563466839,77,55.1,-105.3,291.15,1.5
442,viedma,0,AR,1563466839,35,-40.81,-62.99,285.502,8.13
443,kouroussa,69,GN,1563466840,84,10.65,-9.88,299.402,1.99
444,maniitsoq,100,GL,1563466840,86,65.42,-52.9,280.102,9.25
445,molina,90,CL,1563466809,100,-35.11,-71.28,279.15,2.6
446,shenjiamen,34,CN,1563466841,92,29.96,122.3,299.102,5.67
447,pokhara,100,NP,1563466842,92,28.21,83.99,287.702,0.16
448,praia grande,75,BR,1563466543,68,-24.01,-46.4,294.26,5.7
449,toro,0,ES,1563466842,20,41.52,-5.39,305.37,3.6
450,adjumani,23,UG,1563466843,65,3.38,31.79,300.502,2.47
451,ayni,0,TJ,1563466844,26,39.39,68.54,291.702,2.53
452,hambantota,75,LK,1563466844,100,6.12,81.12,298.15,7.2
453,suleja,99,NG,1563466845,86,9.18,7.18,299.302,1.55
454,porto velho,20,BR,1563466845,43,-8.75,-63.87,306.15,1.0
455,ngunguru,100,NZ,1563466845,92,-35.62,174.5,286.48,5.81
456,de-kastri,100,RU,1563466846,97,51.48,140.77,287.702,1.97
457,linkoping,72,SE,1563466846,49,58.41,15.62,297.04,2.1
458,karratha,0,AU,1563466847,40,-20.74,116.85,289.602,0.95
459,machico,40,PT,1563466847,57,32.7,-16.77,297.15,6.2
460,kidal,29,ML,1563466848,10,18.44,1.41,316.502,4.92
461,hualmay,100,PE,1563466849,85,-11.1,-77.61,289.302,6.22
462,hong gai,0,VN,1563466849,84,20.96,107.09,304.15,1.5
463,mana,93,NG,1563466850,32,13.03,5.27,309.602,5.19
464,moose factory,90,CA,1563466851,64,51.26,-80.61,293.15,5.7
465,sundsvall,0,SE,1563466852,72,62.39,17.31,290.93,4.6
466,ous,86,RU,1563466852,90,60.91,61.52,288.302,1.72
467,shimoda,75,JP,1563466852,100,34.7,138.93,296.48,1.0
468,along,26,IN,1563466715,96,28.17,94.8,289.502,0.96
469,antequera,0,ES,1563466853,54,37.02,-4.56,301.48,2.6
470,vargashi,0,RU,1563466854,67,55.36,65.85,295.602,2.69
471,santa cruz,0,BR,1563466854,34,-6.22,-36.02,304.102,7.59
472,qianjiang,36,CN,1563466855,84,30.43,112.89,297.402,5.15
473,lahan,92,NP,1563466855,66,26.71,86.48,302.802,0.91
474,parabel,56,RU,1563466856,94,58.71,81.5,291.502,2.42
475,merauke,98,ID,1563466856,82,-8.49,140.4,298.302,9.92
476,novyy urengoy,0,RU,1563466857,42,66.08,76.63,301.402,4.22
477,yining,99,CN,1563466857,94,29.04,114.56,298.102,0.81
478,minas,0,UY,1563466857,67,-34.38,-55.24,289.15,4.6
479,hanzhong,12,CN,1563466858,90,33.08,107.03,295.502,0.59
480,mengcheng,67,CN,1563466859,86,33.26,116.57,297.802,3.46
481,changde,100,CN,1563466859,93,29.04,111.68,297.902,2.38
482,tabas,0,IR,1563466860,7,33.6,56.92,313.15,1.0
483,warrington,40,GB,1563466861,60,53.39,-2.59,294.82,6.7
484,boueni,0,YT,1563466861,69,-12.9,45.08,298.15,4.1
485,pontianak,94,ID,1563466861,83,-0.02,109.34,301.002,7.15
486,gamba,37,CN,1563466862,55,28.28,88.52,282.302,2.4
487,batagay-alyta,100,RU,1563466863,95,67.8,130.41,274.302,4.57
488,sept-iles,20,CA,1563466829,35,50.2,-66.38,295.15,6.7
489,sitka,0,US,1563466864,45,37.17,-99.65,306.48,7.15
490,tabou,47,CI,1563466865,83,4.42,-7.36,299.502,4.33
491,maceio,0,BR,1563466865,48,-9.67,-35.74,301.15,2.1
492,shumskiy,7,RU,1563466866,73,54.83,99.13,290.302,0.81
493,nouadhibou,0,MR,1563466867,64,20.93,-17.03,297.15,10.8
494,roald,0,NO,1563466867,82,62.58,6.12,295.15,3.6
495,ahuimanu,40,US,1563466868,88,21.44,-157.84,300.15,6.2
496,bahia blanca,12,AR,1563466868,32,-38.72,-62.27,285.702,4.51
497,kingman,1,US,1563466869,15,35.19,-114.05,308.15,6.7
498,seddon,75,AU,1563466869,76,-37.81,144.89,285.37,6.2
499,corum,40,TR,1563466870,47,38.8,29.89,297.15,2.1
500,parrita,75,CR,1563466870,65,9.52,-84.33,300.15,7.2
501,botwood,75,CA,1563466871,72,49.14,-55.34,293.15,9.3
502,selma,74,US,1563466871,59,32.41,-87.02,306.48,2.1
503,ust-barguzin,0,RU,1563466872,94,53.41,109.03,284.602,0.31
504,vallenar,0,CL,1563466872,41,-28.58,-70.76,291.102,1.56
505,seagoville,40,US,1563466873,58,32.64,-96.54,305.37,6.7
506,mokhsogollokh,29,RU,1563466873,73,61.4,128.95,282.402,1.13
507,sheridan,75,US,1563466782,23,39.65,-105.03,304.82,5.7
508,emerald,0,AU,1563466874,53,-23.53,148.16,283.15,4.6
509,derzhavinsk,0,KZ,1563466875,36,51.1,66.31,299.202,3.66
510,kirakira,67,SB,1563466875,86,-10.46,161.92,297.702,1.44
511,muswellbrook,0,AU,1563466875,94,-32.27,150.89,274.702,1.28
512,valday,14,RU,1563466876,78,57.98,33.25,292.302,0.44
513,sioux lookout,75,CA,1563466876,94,50.1,-91.92,296.15,4.6
514,nhulunbuy,66,AU,1563466877,83,-12.18,136.78,294.15,2.6
515,roebourne,0,AU,1563466877,38,-20.77,117.15,289.702,0.74
516,samarai,52,PG,1563466878,89,-10.62,150.67,294.902,2.17
517,kedrovyy,0,RU,1563466878,82,56.17,91.82,292.15,1.85
518,kottagudem,99,IN,1563466879,76,17.55,80.63,301.602,1.09
519,north battleford,40,CA,1563466879,82,52.78,-108.3,291.48,1.5
520,kenai,1,US,1563466793,82,60.55,-151.26,288.15,2.6
521,aykhal,0,RU,1563466880,57,65.95,111.51,283.15,3.0
522,leibnitz,75,AT,1563466881,56,46.78,15.54,297.59,2.1
523,sola,0,TZ,1563466881,28,-3.17,33.8,301.202,3.87
524,ampanihy,5,MG,1563466882,68,-24.69,44.75,292.702,3.09
525,barao de melgaco,0,BR,1563466882,29,-16.19,-55.97,306.15,2.1
526,pangody,51,RU,1563466883,48,65.85,74.49,302.102,3.78
527,tapes,0,BR,1563466884,73,-30.67,-51.4,289.302,3.05
528,vanavara,0,RU,1563466884,60,60.35,102.28,289.702,4.33
529,san lorenzo,0,HN,1563466884,58,13.43,-87.45,303.15,1.48
530,bulaevo,37,KZ,1563466885,72,54.91,70.44,293.802,2.25
531,chifeng,32,CN,1563466885,48,42.27,118.96,294.102,0.9
532,metro,100,ID,1563466708,83,-5.11,105.31,294.802,1.64
533,aguimes,20,ES,1563466886,50,27.91,-15.45,299.15,12.9
534,geraldton,75,CA,1563466886,78,49.72,-86.95,295.15,4.6
535,bathsheba,40,BB,1563466887,79,13.22,-59.52,302.15,7.7
536,bella vista,20,AR,1563466887,64,-27.03,-65.31,293.15,5.1
537,manokwari,0,ID,1563466814,60,-0.87,134.08,296.602,2.48
538,kamloops,75,CA,1563466888,71,50.68,-120.34,285.37,1.5
539,berezovyy,84,RU,1563466889,96,51.67,135.7,289.102,0.82
540,marrakesh,0,MA,1563466889,26,31.63,-7.99,306.15,3.1
541,lockport,40,CA,1563466890,73,50.09,-96.94,298.71,3.1
